{
"type": "FeatureCollection",
"name": "states_legal_no_points",
"crs": { "type": "name", "properties": { "name": "urn:ogc:def:crs:OGC:1.3:CRS84" } },
"features": [
{ "type": "Feature", "properties": { "OBJECTID": 1, "postal": "AK", "fips": "US02", "Name": "Alaska", "Status": "Failed legislation in 2020" }, "geometry": { "type": "Point", "coordinates": [ -152.58867, 64.29455 ] } },
{ "type": "Feature", "properties": { "OBJECTID": 2, "postal": "AL", "fips": "US01", "Name": "Alabama", "Status": "Failed legislation in 2020" }, "geometry": { "type": "Point", "coordinates": [ -86.83148, 32.79387 ] } },
{ "type": "Feature", "properties": { "OBJECTID": 3, "postal": "AZ", "fips": "US04", "Name": "Arizona", "Status": "Failed legislation in 2020" }, "geometry": { "type": "Point", "coordinates": [ -111.66017, 34.29158 ] } },
{ "type": "Feature", "properties": { "OBJECTID": 4, "postal": "CA", "fips": "US06", "Name": "California", "Status": "Failed legislation in 2020" }, "geometry": { "type": "Point", "coordinates": [ -119.60237, 37.24226 ] } },
{ "type": "Feature", "properties": { "OBJECTID": 5, "postal": "CT", "fips": "US09", "Name": "Connecticut", "Status": "Failed legislation in 2020" }, "geometry": { "type": "Point", "coordinates": [ -72.72549, 41.62694 ] } },
{ "type": "Feature", "properties": { "OBJECTID": 6, "postal": "FL", "fips": "US12", "Name": "Florida", "Status": "Failed legislation in 2020" }, "geometry": { "type": "Point", "coordinates": [ -82.49361, 28.65786 ] } },
{ "type": "Feature", "properties": { "OBJECTID": 7, "postal": "GA", "fips": "US13", "Name": "Georgia", "Status": "Failed legislation in 2020" }, "geometry": { "type": "Point", "coordinates": [ -83.4566, 32.65901 ] } },
{ "type": "Feature", "properties": { "OBJECTID": 8, "postal": "ID", "fips": "US16", "Name": "Idaho", "Status": "No legislation in 2020" }, "geometry": { "type": "Point", "coordinates": [ -114.65183, 44.39271 ] } },
{ "type": "Feature", "properties": { "OBJECTID": 9, "postal": "KY", "fips": "US21", "Name": "Kentucky", "Status": "Failed legislation in 2020" }, "geometry": { "type": "Point", "coordinates": [ -85.28618, 37.53157 ] } },
{ "type": "Feature", "properties": { "OBJECTID": 10, "postal": "ME", "fips": "US23", "Name": "Maine", "Status": "Failed legislation in 2020" }, "geometry": { "type": "Point", "coordinates": [ -69.23966, 45.40022 ] } },
{ "type": "Feature", "properties": { "OBJECTID": 11, "postal": "MN", "fips": "US27", "Name": "Minnesota", "Status": "Failed legislation in 2020" }, "geometry": { "type": "Point", "coordinates": [ -94.19758, 46.34392 ] } },
{ "type": "Feature", "properties": { "OBJECTID": 12, "postal": "MO", "fips": "US29", "Name": "Missouri", "Status": "Failed legislation in 2020" }, "geometry": { "type": "Point", "coordinates": [ -92.49201, 38.38417 ] } },
{ "type": "Feature", "properties": { "OBJECTID": 13, "postal": "ND", "fips": "US38", "Name": "North Dakota", "Status": "No legislation in 2020" }, "geometry": { "type": "Point", "coordinates": [ -100.45974, 47.4449 ] } },
{ "type": "Feature", "properties": { "OBJECTID": 14, "postal": "OK", "fips": "US40", "Name": "Oklahoma", "Status": "No legislation in 2020" }, "geometry": { "type": "Point", "coordinates": [ -97.51155, 35.58952 ] } },
{ "type": "Feature", "properties": { "OBJECTID": 15, "postal": "SC", "fips": "US45", "Name": "South Carolina", "Status": "No legislation in 2020" }, "geometry": { "type": "Point", "coordinates": [ -80.90027, 33.9194 ] } },
{ "type": "Feature", "properties": { "OBJECTID": 16, "postal": "TX", "fips": "US48", "Name": "Texas", "Status": "No legislation in 2020" }, "geometry": { "type": "Point", "coordinates": [ -99.35325, 31.49914 ] } },
{ "type": "Feature", "properties": { "OBJECTID": 17, "postal": "UT", "fips": "US49", "Name": "Utah", "Status": "No legislation in 2020" }, "geometry": { "type": "Point", "coordinates": [ -111.67421, 39.32751 ] } },
{ "type": "Feature", "properties": { "OBJECTID": 18, "postal": "WI", "fips": "US55", "Name": "Wisconsin", "Status": "No legislation in 2020" }, "geometry": { "type": "Point", "coordinates": [ -89.73709, 44.64597 ] } },
{ "type": "Feature", "properties": { "OBJECTID": 19, "postal": "WY", "fips": "US56", "Name": "Wyoming", "Status": "Failed legislation in 2020" }, "geometry": { "type": "Point", "coordinates": [ -107.53992, 43.00031 ] } }
]
}
